city,state,lat,lng
Seattle,WA,47.608013,-122.335167
Tacoma,WA,47.258728,-122.465973
Bellevue,WA,47.610378,-122.200676
Portland,OR,45.523064,-122.676483
Spokane,WA,47.658779,-117.426048
Eugene,OR,44.052071-123.086754
Los Angeles,CA,34.052235,-118.243683
San Francisco,CA,37.733795,-122.446747
Mountain View,CA,37.386051,-122.083855
Palo Alto,CA,37.468319,-122.143936
Oakland,CA,37.804363,-122.271111
San Diego,CA,32.715736,-117.161087